[
    {
    "id": "1988eb86-f0a2-4674-ba04-02454efa0d31",
    "name": "10 Barrel Brewing Co - Denver",
    "brewery_type": "large",
    "address_1": "2620 Walnut St",
    "address_2": null,
    "address_3": null,
    "city": "Denver",
    "state_province": "Colorado",
    "postal_code": "80205-2231",
    "country": "United States",
    "longitude": "-104.9853655",
    "latitude": "39.7592508",
    "phone": "7205738992",
    "website_url": null,
    "state": "Colorado",
    "street": "2620 Walnut St"
    },
    {
    "id": "4b677b60-fef1-42e2-90ef-dadc1bd7fb06",
    "name": "14er Brewing Company",
    "brewery_type": "proprietor",
    "address_1": "2801 Walnut St",
    "address_2": null,
    "address_3": null,
    "city": "Denver",
    "state_province": "Colorado",
    "postal_code": "80205-2235",
    "country": "United States",
    "longitude": "-104.9839636",
    "latitude": "39.7614112",
    "phone": "7207731437",
    "website_url": "http://www.14erBrewing.com",
    "state": "Colorado",
    "street": "2801 Walnut St"
    },
    {
    "id": "e77c24b4-8b21-4d28-a9c0-568623b77cd9",
    "name": "Aero Craft Brewing",
    "brewery_type": "planning",
    "address_1": null,
    "address_2": null,
    "address_3": null,
    "city": "Denver",
    "state_province": "Colorado",
    "postal_code": "80212-2199",
    "country": "United States",
    "longitude": "-104.984696",
    "latitude": "39.7391428",
    "phone": "3039185446",
    "website_url": "http://www.aerocraft.beer",
    "state": "Colorado",
    "street": null
    },
    {
    "id": "9d64f11c-4f42-41c6-8ba7-768f7bf9ec13",
    "name": "Alpine Dog Brewing Co",
    "brewery_type": "micro",
    "address_1": "1505 N Ogden St",
    "address_2": null,
    "address_3": null,
    "city": "Denver",
    "state_province": "Colorado",
    "postal_code": "80218-1405",
    "country": "United States",
    "longitude": null,
    "latitude": null,
    "phone": "3038321245",
    "website_url": "http://www.alpinedogbrewery.com",
    "state": "Colorado",
    "street": "1505 N Ogden St"
    },
    {
    "id": "6dcf0b1b-3933-4207-bf88-0a37ee98994a",
    "name": "Alternation Brewing Company",
    "brewery_type": "micro",
    "address_1": "1539 S Broadway",
    "address_2": null,
    "address_3": null,
    "city": "Denver",
    "state_province": "Colorado",
    "postal_code": "80210-2607",
    "country": "United States",
    "longitude": "-104.9876117",
    "latitude": "39.68866374",
    "phone": "3038025340",
    "website_url": "http://www.alternationbrewing.com",
    "state": "Colorado",
    "street": "1539 S Broadway"
    },
    {
    "id": "1a6103ad-023a-4710-988f-17e47a6732c2",
    "name": "Amalgam Brewing",
    "brewery_type": "proprietor",
    "address_1": "6381 Beach St Unit A",
    "address_2": null,
    "address_3": null,
    "city": "Denver",
    "state_province": "Colorado",
    "postal_code": "80221-2036",
    "country": "United States",
    "longitude": null,
    "latitude": null,
    "phone": null,
    "website_url": "http://www.amalgambrewing.com",
    "state": "Colorado",
    "street": "6381 Beach St Unit A"
    },
    {
    "id": "e25d20e1-1700-45a6-b236-9eb6d01a9434",
    "name": "Baere Brewing Company",
    "brewery_type": "micro",
    "address_1": "320 Broadway, Unit E",
    "address_2": null,
    "address_3": null,
    "city": "Denver",
    "state_province": "Colorado",
    "postal_code": "80203-3955",
    "country": "United States",
    "longitude": null,
    "latitude": null,
    "phone": "9709014810",
    "website_url": "http://www.baerebrewing.com",
    "state": "Colorado",
    "street": "320 Broadway, Unit E"
    },
    {
    "id": "2b5fbb61-2e0b-42ec-8d68-dcc62fe244e9",
    "name": "Banded Oak Brewing Company",
    "brewery_type": "brewpub",
    "address_1": "470 N Broadway",
    "address_2": null,
    "address_3": null,
    "city": "Denver",
    "state_province": "Colorado",
    "postal_code": "80203-3404",
    "country": "United States",
    "longitude": "-104.9874187",
    "latitude": "39.7282897",
    "phone": "7204798033",
    "website_url": "http://Bandedoakbrewing.com",
    "state": "Colorado",
    "street": "470 N Broadway"
    },
    {
    "id": "c3d41248-80ed-4c14-8078-c100308e5450",
    "name": "Bierstadt Lagerhaus",
    "brewery_type": "brewpub",
    "address_1": "2875 Blake St",
    "address_2": null,
    "address_3": null,
    "city": "Denver",
    "state_province": "Colorado",
    "postal_code": "80205-2210",
    "country": "United States",
    "longitude": "-104.9838084",
    "latitude": "39.7630094",
    "phone": "7205707824",
    "website_url": "http://www.bierstadtlager.com",
    "state": "Colorado",
    "street": "2875 Blake St"
    },
    {
    "id": "6cab717d-2883-4869-ab9a-879f09319efb",
    "name": "Black Beak Brewing",
    "brewery_type": "planning",
    "address_1": null,
    "address_2": null,
    "address_3": null,
    "city": "Denver",
    "state_province": "Colorado",
    "postal_code": "80237-1907",
    "country": "United States",
    "longitude": "-104.984696",
    "latitude": "39.7391428",
    "phone": "3032107836",
    "website_url": null,
    "state": "Colorado",
    "street": null
    },
    {
    "id": "e12bc89b-26c8-4835-a92d-9caa5ad81750",
    "name": "Black Project Spontaneous & Wild Ales",
    "brewery_type": "micro",
    "address_1": "1290 S Broadway",
    "address_2": null,
    "address_3": null,
    "city": "Denver",
    "state_province": "Colorado",
    "postal_code": "80210-1504",
    "country": "United States",
    "longitude": "-104.9872018",
    "latitude": "39.6933607",
    "phone": "7203342873",
    "website_url": "http://www.blackprojectbeer.com",
    "state": "Colorado",
    "street": "1290 S Broadway"
    },
    {
    "id": "5b5235aa-79f1-41e4-97a1-8f9fdfee1657",
    "name": "Black Shirt Brewing Co",
    "brewery_type": "brewpub",
    "address_1": "3719 Walnut St",
    "address_2": null,
    "address_3": null,
    "city": "Denver",
    "state_province": "Colorado",
    "postal_code": "80205-2436",
    "country": "United States",
    "longitude": "-104.9729604",
    "latitude": "39.7698142",
    "phone": "3039932799",
    "website_url": "http://www.blackshirtbrewingco.com",
    "state": "Colorado",
    "street": "3719 Walnut St"
    },
    {
    "id": "15855eaa-dfcc-43e4-a0ff-220836e5be63",
    "name": "Black Sky Brewery",
    "brewery_type": "brewpub",
    "address_1": "490 Santa Fe Dr",
    "address_2": null,
    "address_3": null,
    "city": "Denver",
    "state_province": "Colorado",
    "postal_code": "80204-5024",
    "country": "United States",
    "longitude": "-104.9983183",
    "latitude": "39.7239431",
    "phone": "9702154536",
    "website_url": "http://www.blackskybrewing.com",
    "state": "Colorado",
    "street": "490 Santa Fe Dr"
    },
    {
    "id": "de0da44e-8a09-4e8d-8b3a-aca03b39cc23",
    "name": "Blue Moon Brewery",
    "brewery_type": "large",
    "address_1": "3750 Chestnut Pl",
    "address_2": null,
    "address_3": null,
    "city": "Denver",
    "state_province": "Colorado",
    "postal_code": "80216-3632",
    "country": "United States",
    "longitude": "-104.9769417",
    "latitude": "39.7735561",
    "phone": null,
    "website_url": null,
    "state": "Colorado",
    "street": "3750 Chestnut Pl"
    },
    {
    "id": "b41b75b3-1fda-4ccc-94b9-58ab8b9454c6",
    "name": "Brewability Lab",
    "brewery_type": "micro",
    "address_1": "12445 E 39th Ave Unit 314",
    "address_2": null,
    "address_3": null,
    "city": "Denver",
    "state_province": "Colorado",
    "postal_code": "80239-3456",
    "country": "United States",
    "longitude": null,
    "latitude": null,
    "phone": "8163515085",
    "website_url": "http://www.Brewabilitylab.com",
    "state": "Colorado",
    "street": "12445 E 39th Ave Unit 314"
    },
    {
    "id": "797d3752-6296-481b-882a-d12fe725f83f",
    "name": "Briar Common Brewery",
    "brewery_type": "brewpub",
    "address_1": "2298 N Clay St",
    "address_2": null,
    "address_3": null,
    "city": "Denver",
    "state_province": "Colorado",
    "postal_code": "80211-5122",
    "country": "United States",
    "longitude": null,
    "latitude": null,
    "phone": "7204703731",
    "website_url": "http://www.briarcommon.com",
    "state": "Colorado",
    "street": "2298 N Clay St"
    },
    {
    "id": "83aef3a5-e9ba-47e7-bb58-3b061caff00d",
    "name": "Bruz Beers",
    "brewery_type": "micro",
    "address_1": "1675 W 67th Ave Ste 100",
    "address_2": null,
    "address_3": null,
    "city": "Denver",
    "state_province": "Colorado",
    "postal_code": "80221-2595",
    "country": "United States",
    "longitude": null,
    "latitude": null,
    "phone": "3036502337",
    "website_url": "http://www.bruzbeers.com",
    "state": "Colorado",
    "street": "1675 W 67th Ave Ste 100"
    },
    {
    "id": "a235f4c4-1a4f-4ef7-bbaf-b95142e2bd44",
    "name": "Bull & Bush Brewery",
    "brewery_type": "brewpub",
    "address_1": "4700 E Cherry Creek South Dr",
    "address_2": null,
    "address_3": null,
    "city": "Denver",
    "state_province": "Colorado",
    "postal_code": "80246-1819",
    "country": "United States",
    "longitude": "-104.9488456",
    "latitude": "39.7116689",
    "phone": "3037590333",
    "website_url": "http://www.bullandbush.com",
    "state": "Colorado",
    "street": "4700 E Cherry Creek South Dr"
    },
    {
    "id": "7bdc2c91-ce80-4fb3-b2a2-bb9f7c8ab5bf",
    "name": "Burgundian Brewing Co.",
    "brewery_type": "micro",
    "address_1": "4725 Lipan St",
    "address_2": null,
    "address_3": null,
    "city": "Denver",
    "state_province": "Colorado",
    "postal_code": "80211-2334",
    "country": "United States",
    "longitude": "-105.0024095",
    "latitude": "39.7825168",
    "phone": "4704400420",
    "website_url": "http://www.facebook.com/BurgundianBrewing",
    "state": "Colorado",
    "street": "4725 Lipan St"
    },
    {
    "id": "8475bb73-3d83-4191-9b9f-ecd918b1ec0f",
    "name": "Burns Family Artisan Ales",
    "brewery_type": "planning",
    "address_1": null,
    "address_2": null,
    "address_3": null,
    "city": "Denver",
    "state_province": "Colorado",
    "postal_code": "80219-1655",
    "country": "United States",
    "longitude": null,
    "latitude": null,
    "phone": "2482242697",
    "website_url": null,
    "state": "Colorado",
    "street": null
    },
    {
    "id": "5494f614-38f1-4c0d-822d-58977264bb89",
    "name": "Call To Arms Brewing Company",
    "brewery_type": "micro",
    "address_1": "4526 Tennyson St",
    "address_2": null,
    "address_3": null,
    "city": "Denver",
    "state_province": "Colorado",
    "postal_code": "80212-2527",
    "country": "United States",
    "longitude": "-105.0435373",
    "latitude": "39.7788541",
    "phone": null,
    "website_url": "http://www.facebook.com/calltoarmsbrewing",
    "state": "Colorado",
    "street": "4526 Tennyson St"
    },
    {
    "id": "d41989d3-e3a4-47c0-a0eb-cdcfe61a1066",
    "name": "Cerebral Brewing",
    "brewery_type": "micro",
    "address_1": "1477 Monroe St",
    "address_2": null,
    "address_3": null,
    "city": "Denver",
    "state_province": "Colorado",
    "postal_code": "80206-2708",
    "country": "United States",
    "longitude": "-104.9451783",
    "latitude": "39.73968253",
    "phone": "3039277365",
    "website_url": "http://www.cerebralbrewing.com",
    "state": "Colorado",
    "street": "1477 Monroe St"
    },
    {
    "id": "54a938fd-f2bc-4579-b173-3657eaaed527",
    "name": "Chain Reaction Brewing Company",
    "brewery_type": "micro",
    "address_1": "902 S Lipan St",
    "address_2": null,
    "address_3": null,
    "city": "Denver",
    "state_province": "Colorado",
    "postal_code": "80223-2717",
    "country": "United States",
    "longitude": "-105.001629",
    "latitude": "39.69879376",
    "phone": "3039220960",
    "website_url": "http://www.chainreactionbrewingco.com",
    "state": "Colorado",
    "street": "902 S Lipan St"
    },
    {
    "id": "01d63632-5f2c-4cae-82b3-a85ad36b0aa3",
    "name": "ChopHouse and Brewery - Denver",
    "brewery_type": "brewpub",
    "address_1": "1735 19th St Ste 100",
    "address_2": null,
    "address_3": null,
    "city": "Denver",
    "state_province": "Colorado",
    "postal_code": "80202-6002",
    "country": "United States",
    "longitude": null,
    "latitude": null,
    "phone": "3032960800",
    "website_url": "http://www.craftworksrestaurants.com",
    "state": "Colorado",
    "street": "1735 19th St Ste 100"
    },
    {
    "id": "e5028c3e-023e-4987-94a5-58ab9ff94fa0",
    "name": "CO-Brew",
    "brewery_type": "micro",
    "address_1": "1133 N Broadway",
    "address_2": null,
    "address_3": null,
    "city": "Denver",
    "state_province": "Colorado",
    "postal_code": "80203-2106",
    "country": "United States",
    "longitude": null,
    "latitude": null,
    "phone": "7204854959",
    "website_url": "http://www.cobrewdenver.com",
    "state": "Colorado",
    "street": "1133 N Broadway"
    },
    {
    "id": "828523e3-2c37-43f8-bcda-31932e088de0",
    "name": "Comrade Brewing Company",
    "brewery_type": "micro",
    "address_1": "7667 E Iliff Ave Ste F",
    "address_2": null,
    "address_3": null,
    "city": "Denver",
    "state_province": "Colorado",
    "postal_code": "80231-5361",
    "country": "United States",
    "longitude": null,
    "latitude": null,
    "phone": "7207480700",
    "website_url": "http://comradebrewing.com",
    "state": "Colorado",
    "street": "7667 E Iliff Ave Ste F"
    },
    {
    "id": "da0cdbd7-87e0-4722-ab5e-018582374a43",
    "name": "Copper Kettle Brewing Company",
    "brewery_type": "micro",
    "address_1": "1338 S Valentia St Ste 100",
    "address_2": null,
    "address_3": null,
    "city": "Denver",
    "state_province": "Colorado",
    "postal_code": "80247-2167",
    "country": "United States",
    "longitude": null,
    "latitude": null,
    "phone": "7204432522",
    "website_url": "http://www.copperkettledenver.com",
    "state": "Colorado",
    "street": "1338 S Valentia St Ste 100"
    },
    {
    "id": "ca8bfb14-81cf-4c1c-8cd6-78b99cf7b1bd",
    "name": "Crazy Mountain Brewing Co",
    "brewery_type": "regional",
    "address_1": "471 Kalamath St",
    "address_2": null,
    "address_3": null,
    "city": "Denver",
    "state_province": "Colorado",
    "postal_code": "80204-5019",
    "country": "United States",
    "longitude": "-105.0002926",
    "latitude": "39.72361171",
    "phone": "9709263009",
    "website_url": "http://www.crazymountainbrewery.com",
    "state": "Colorado",
    "street": "471 Kalamath St"
    },
    {
    "id": "e26fbcf7-5991-4cae-8c54-15a107fba85d",
    "name": "Crooked Stave Artisan Beer Project",
    "brewery_type": "micro",
    "address_1": "1441 W 46th Ave Unit 17",
    "address_2": null,
    "address_3": null,
    "city": "Denver",
    "state_province": "Colorado",
    "postal_code": "80211-2338",
    "country": "United States",
    "longitude": null,
    "latitude": null,
    "phone": "7205083292",
    "website_url": "http://www.crookedstave.com",
    "state": "Colorado",
    "street": "1441 W 46th Ave Unit 17"
    },
    {
    "id": "9fbd0b0c-5aa5-417c-a699-85aa4dc90f86",
    "name": "Declaration Brewing Company",
    "brewery_type": "micro",
    "address_1": "2030 S Cherokee St",
    "address_2": null,
    "address_3": null,
    "city": "Denver",
    "state_province": "Colorado",
    "postal_code": "80223-3917",
    "country": "United States",
    "longitude": "-104.9910056",
    "latitude": "39.67973155",
    "phone": "3039557410",
    "website_url": "http://www.declarationbrewing.com",
    "state": "Colorado",
    "street": "2030 S Cherokee St"
    },
    {
    "id": "4405d177-19d8-44d4-bbf2-3b94894d460c",
    "name": "Denver Beer Co",
    "brewery_type": "micro",
    "address_1": "1695 Platte St",
    "address_2": null,
    "address_3": null,
    "city": "Denver",
    "state_province": "Colorado",
    "postal_code": "80202-1123",
    "country": "United States",
    "longitude": "-105.0072502",
    "latitude": "39.7583143",
    "phone": "3034332739",
    "website_url": "http://www.denverbeerco.com",
    "state": "Colorado",
    "street": "1695 Platte St"
    },
    {
    "id": "4b5c7db7-9157-47f7-ac78-299248150164",
    "name": "Denver Beer Co Canworks",
    "brewery_type": "micro",
    "address_1": "4455 Jason St",
    "address_2": null,
    "address_3": null,
    "city": "Denver",
    "state_province": "Colorado",
    "postal_code": "80211-2412",
    "country": "United States",
    "longitude": "-105.0008302",
    "latitude": "39.7769429",
    "phone": "7202954781",
    "website_url": null,
    "state": "Colorado",
    "street": "4455 Jason St"
    },
    {
    "id": "e8cf3258-6464-4de0-8769-40027573fc5f",
    "name": "DeSteeg Brewing Co/Blind Faith Brewing",
    "brewery_type": "micro",
    "address_1": "4342 Tennyson St",
    "address_2": null,
    "address_3": null,
    "city": "Denver",
    "state_province": "Colorado",
    "postal_code": "80212-2308",
    "country": "United States",
    "longitude": "-105.0438193",
    "latitude": "39.7760619",
    "phone": "3034849698",
    "website_url": "http://www.desteegbrewing.com",
    "state": "Colorado",
    "street": "4342 Tennyson St"
    },
    {
    "id": "6f89022e-0f54-4054-b37f-919c1ed4218c",
    "name": "Diebolt Brewing",
    "brewery_type": "micro",
    "address_1": "3855 Mariposa St",
    "address_2": null,
    "address_3": null,
    "city": "Denver",
    "state_province": "Colorado",
    "postal_code": "80211-2647",
    "country": "United States",
    "longitude": "-105.0032079",
    "latitude": "39.770332",
    "phone": "7206435940",
    "website_url": "http://www.dieboltbrewing.com",
    "state": "Colorado",
    "street": "3855 Mariposa St"
    },
    {
    "id": "cc134379-14ee-4246-9535-ae117501b9af",
    "name": "Dos Luces Brewery",
    "brewery_type": "contract",
    "address_1": "1236 S Broadway",
    "address_2": null,
    "address_3": null,
    "city": "Denver",
    "state_province": "Colorado",
    "postal_code": "80210-1504",
    "country": "United States",
    "longitude": "-104.9874923",
    "latitude": "39.6830067",
    "phone": "3037254527",
    "website_url": "http://www.dosluces.com",
    "state": "Colorado",
    "street": "1236 S Broadway"
    },
    {
    "id": "2295d060-841f-4b67-81c9-1ddf3f37ab11",
    "name": "Epic Brewing Co., LLC",
    "brewery_type": "micro",
    "address_1": "3001 Walnut St",
    "address_2": null,
    "address_3": null,
    "city": "Denver",
    "state_province": "Colorado",
    "postal_code": "80205-2324",
    "country": "United States",
    "longitude": "-104.9813405",
    "latitude": "39.7632294",
    "phone": "7205397410",
    "website_url": "http://www.epicbrewing.com",
    "state": "Colorado",
    "street": "3001 Walnut St"
    },
    {
    "id": "4b832677-fcb7-4eb8-8d6b-c0429d0db2f1",
    "name": "Factotum Brewhouse",
    "brewery_type": "micro",
    "address_1": "3845 Lipan St",
    "address_2": null,
    "address_3": null,
    "city": "Denver",
    "state_province": "Colorado",
    "postal_code": "80211-2651",
    "country": "United States",
    "longitude": "-105.0020653",
    "latitude": "39.7702043",
    "phone": "7204414735",
    "website_url": "http://www.factotumbrewhouse.com",
    "state": "Colorado",
    "street": "3845 Lipan St"
    },
    {
    "id": "5d495cd7-11f9-4a81-95de-71b96deca5dd",
    "name": "Fermaentra",
    "brewery_type": "micro",
    "address_1": "1715 E Evans Ave",
    "address_2": null,
    "address_3": null,
    "city": "Denver",
    "state_province": "Colorado",
    "postal_code": "80210-4601",
    "country": "United States",
    "longitude": "-104.9428631",
    "latitude": "39.6784277",
    "phone": "3039550736",
    "website_url": "http://www.fermaentra.com",
    "state": "Colorado",
    "street": "1715 E Evans Ave"
    },
    {
    "id": "6eacc4a0-3173-4e08-901b-6135ccf60690",
    "name": "Fiction Beer Company",
    "brewery_type": "micro",
    "address_1": "7101 E Colfax Ave",
    "address_2": null,
    "address_3": null,
    "city": "Denver",
    "state_province": "Colorado",
    "postal_code": "80220-1805",
    "country": "United States",
    "longitude": "-104.8854207",
    "latitude": "39.7402188",
    "phone": "7204567163",
    "website_url": "http://www.fictionbeer.com",
    "state": "Colorado",
    "street": "7101 E Colfax Ave"
    },
    {
    "id": "5667d9d2-8053-4a56-a246-2c5845ca4c74",
    "name": "Goldspot Brewing Co",
    "brewery_type": "micro",
    "address_1": "4970 Lowell Blvd",
    "address_2": null,
    "address_3": null,
    "city": "Denver",
    "state_province": "Colorado",
    "postal_code": "80221-1028",
    "country": "United States",
    "longitude": "-105.0343545",
    "latitude": "39.7868924",
    "phone": "3039555657",
    "website_url": "http://www.goldspotbrewing.com",
    "state": "Colorado",
    "street": "4970 Lowell Blvd"
    },
    {
    "id": "36785f2c-ba97-48ed-8bcf-2b45c3a4a0d0",
    "name": "Good River Beer Company",
    "brewery_type": "contract",
    "address_1": "1790 S Bannock St.",
    "address_2": null,
    "address_3": null,
    "city": "Denver",
    "state_province": "Colorado",
    "postal_code": "80223",
    "country": "United States",
    "longitude": "-104.9898169",
    "latitude": "39.68421218",
    "phone": "6023697442",
    "website_url": "http://www.grbeerco.com",
    "state": "Colorado",
    "street": "1790 S Bannock St."
    },
    {
    "id": "d9992b88-eaa2-4566-8b0e-51c34f7c477a",
    "name": "Grandma's House",
    "brewery_type": "micro",
    "address_1": "1710 S Broadway",
    "address_2": null,
    "address_3": null,
    "city": "Denver",
    "state_province": "Colorado",
    "postal_code": "80210-3102",
    "country": "United States",
    "longitude": "-104.9872737",
    "latitude": "39.74350567",
    "phone": "3035786754",
    "website_url": "http://www.grandmasbeer.com",
    "state": "Colorado",
    "street": "1710 S Broadway"
    },
    {
    "id": "8d07cc1f-6941-4ee7-8fbe-6ce91eb7b098",
    "name": "Great Divide Brewing Co",
    "brewery_type": "regional",
    "address_1": "2201 Arapahoe St",
    "address_2": null,
    "address_3": null,
    "city": "Denver",
    "state_province": "Colorado",
    "postal_code": "80205-2512",
    "country": "United States",
    "longitude": "-104.9885279",
    "latitude": "39.7539229",
    "phone": "3032969460",
    "website_url": "http://www.greatdivide.com",
    "state": "Colorado",
    "street": "2201 Arapahoe St"
    },
    {
    "id": "419be70a-a970-41f1-99cd-0b42875001e5",
    "name": "Great Divide Brewing Co - RiNo Barrel Bar",
    "brewery_type": "micro",
    "address_1": "1812 35th St",
    "address_2": null,
    "address_3": null,
    "city": "Denver",
    "state_province": "Colorado",
    "postal_code": "80216-3665",
    "country": "United States",
    "longitude": "-104.979247",
    "latitude": "39.7703322",
    "phone": "3032969460",
    "website_url": "http://greatdivide.com/",
    "state": "Colorado",
    "street": "1812 35th St"
    },
    {
    "id": "a4ef3382-1ed4-426a-a822-5a7e9001597f",
    "name": "Hogshead Brewery",
    "brewery_type": "micro",
    "address_1": "4460 W 29th Ave",
    "address_2": null,
    "address_3": null,
    "city": "Denver",
    "state_province": "Colorado",
    "postal_code": "80212-3015",
    "country": "United States",
    "longitude": "-105.04506",
    "latitude": "39.758232",
    "phone": "3038869655",
    "website_url": "http://www.hogsheadbrewery.com",
    "state": "Colorado",
    "street": "4460 W 29th Ave"
    },
    {
    "id": "e7b2df20-dd98-483d-9263-7284044b95c2",
    "name": "J Moe's Brewing Company",
    "brewery_type": "brewpub",
    "address_1": "7314 Washington St",
    "address_2": null,
    "address_3": null,
    "city": "Denver",
    "state_province": "Colorado",
    "postal_code": "80229-6302",
    "country": "United States",
    "longitude": "-104.9791943",
    "latitude": "39.7800007",
    "phone": "3032874824",
    "website_url": "http://www.creedebeer.com",
    "state": "Colorado",
    "street": "7314 Washington St"
    },
    {
    "id": "018b3e0a-ea27-4f11-acab-16b39607939e",
    "name": "Jagged Mountain Brewery",
    "brewery_type": "micro",
    "address_1": "1139 20th St",
    "address_2": null,
    "address_3": null,
    "city": "Denver",
    "state_province": "Colorado",
    "postal_code": "80202-1811",
    "country": "United States",
    "longitude": "-104.9913673",
    "latitude": "39.7522457",
    "phone": "7206892337",
    "website_url": "http://www.jaggedmountainbrewery.com",
    "state": "Colorado",
    "street": "1139 20th St"
    },
    {
    "id": "2f852b07-f68a-4bef-a0b9-9c5bd05d5413",
    "name": "Lady Justice Brewing Company",
    "brewery_type": "micro",
    "address_1": "4375 Eaton St",
    "address_2": null,
    "address_3": null,
    "city": "Denver",
    "state_province": "Colorado",
    "postal_code": "80212-7308",
    "country": "United States",
    "longitude": "-105.0593393",
    "latitude": "39.7909855",
    "phone": null,
    "website_url": "http://www.ladyjusticebrewing.com",
    "state": "Colorado",
    "street": "4375 Eaton St"
    },
    {
    "id": "3ef4fdd1-cf1f-4227-a6b6-5e4d13471c0b",
    "name": "Left Hand Brewing - RiNo",
    "brewery_type": "micro",
    "address_1": "4180 Wynkoop Street",
    "address_2": null,
    "address_3": null,
    "city": "Denver",
    "state_province": "Colorado",
    "postal_code": "80216",
    "country": "United States",
    "longitude": "-104.9701988",
    "latitude": "39.78107841",
    "phone": "7204497535",
    "website_url": "https://lefthandbrewing.com/rino",
    "state": "Colorado",
    "street": "4180 Wynkoop Street"
    },
    {
    "id": "1d101475-9df6-49ee-8590-e9b82f12bd41",
    "name": "Little Machine",
    "brewery_type": "micro",
    "address_1": "2924 W 20th Ave",
    "address_2": null,
    "address_3": null,
    "city": "Denver",
    "state_province": "Colorado",
    "postal_code": "80211-4622",
    "country": "United States",
    "longitude": "-105.0243557",
    "latitude": "39.7474051",
    "phone": "3032847893",
    "website_url": "http://www.littlemachinebeer.com",
    "state": "Colorado",
    "street": "2924 W 20th Ave"
    },
    {
        "id": "12bc86df-c66b-4fb9-9f84-5bb405ccb8b1",
        "name": "Anheuser-Busch Inc - Fort Collins",
        "brewery_type": "large",
        "address_1": "2351 Busch Dr",
        "address_2": null,
        "address_3": null,
        "city": "Fort Collins",
        "state_province": "Colorado",
        "postal_code": "80524-9400",
        "country": "United States",
        "longitude": "-105.0019686",
        "latitude": "40.61817811",
        "phone": "9704904500",
        "website_url": null,
        "state": "Colorado",
        "street": "2351 Busch Dr"
    },
        {
        "id": "2d1c4b89-4d44-4f47-8ea1-b11fdfc247bd",
        "name": "Black Bottle Brewery",
        "brewery_type": "brewpub",
        "address_1": "1611 S College Ave Ste STE1609",
        "address_2": null,
        "address_3": null,
        "city": "Fort Collins",
        "state_province": "Colorado",
        "postal_code": "80525-1074",
        "country": "United States",
        "longitude": null,
        "latitude": null,
        "phone": "9704932337",
        "website_url": "http://www.blackbottlebrewery.com",
        "state": "Colorado",
        "street": "1611 S College Ave Ste STE1609"
        },
        {
        "id": "781937cb-face-47db-a452-fc3997cca025",
        "name": "CooperSmiths Pub and Brewing",
        "brewery_type": "brewpub",
        "address_1": "5 Old Town Sq",
        "address_2": null,
        "address_3": null,
        "city": "Fort Collins",
        "state_province": "Colorado",
        "postal_code": "80524-2446",
        "country": "United States",
        "longitude": "-105.0755188",
        "latitude": "40.5873784",
        "phone": "9704980483",
        "website_url": "http://www.coopersmithspub.com",
        "state": "Colorado",
        "street": "5 Old Town Sq"
        },
        {
        "id": "fd475f2e-1e9e-4cd4-a9eb-e78f995a9300",
        "name": "D.C. Oakes Brewhouse and Eatery",
        "brewery_type": "brewpub",
        "address_1": "3581 E Harmony Suite 110",
        "address_2": null,
        "address_3": null,
        "city": "Fort Collins",
        "state_province": "Colorado",
        "postal_code": "80528",
        "country": "United States",
        "longitude": null,
        "latitude": null,
        "phone": "3034061757",
        "website_url": "http://www.dcoakesbrewhouse.com",
        "state": "Colorado",
        "street": "3581 E Harmony Suite 110"
        },
        {
        "id": "a3a2cc22-a18b-4cf9-86df-0ca06723116d",
        "name": "Equinox Brewing",
        "brewery_type": "micro",
        "address_1": "133 Remington St",
        "address_2": null,
        "address_3": null,
        "city": "Fort Collins",
        "state_province": "Colorado",
        "postal_code": "80524-2833",
        "country": "United States",
        "longitude": "-105.0757134",
        "latitude": "40.5863266",
        "phone": "9704841368",
        "website_url": "http://www.equinoxbrewing.com",
        "state": "Colorado",
        "street": "133 Remington St"
        },
        {
        "id": "1367028f-a358-4917-9c55-7ffb6fce1c4e",
        "name": "Funkwerks",
        "brewery_type": "micro",
        "address_1": "1900 E Lincoln Ave Unit B",
        "address_2": null,
        "address_3": null,
        "city": "Fort Collins",
        "state_province": "Colorado",
        "postal_code": "80524-2789",
        "country": "United States",
        "longitude": null,
        "latitude": null,
        "phone": "9704823865",
        "website_url": "http://www.funkwerks.com",
        "state": "Colorado",
        "street": "1900 E Lincoln Ave Unit B"
        },
        {
        "id": "311072a3-c9ed-4df1-8efa-896888547e86",
        "name": "Gilded Goat Brewing Company",
        "brewery_type": "micro",
        "address_1": "3500 S College Ave Ste 194",
        "address_2": null,
        "address_3": null,
        "city": "Fort Collins",
        "state_province": "Colorado",
        "postal_code": "80525-2639",
        "country": "United States",
        "longitude": null,
        "latitude": null,
        "phone": "9708257192",
        "website_url": "http://www.gildedgoatbrewing.com",
        "state": "Colorado",
        "street": "3500 S College Ave Ste 194"
        },
        {
        "id": "b302bba4-5c90-4ab5-a9ae-f935ccd19059",
        "name": "Horse & Dragon Brewing Company",
        "brewery_type": "micro",
        "address_1": "124 Racquette Dr",
        "address_2": null,
        "address_3": null,
        "city": "Fort Collins",
        "state_province": "Colorado",
        "postal_code": "80524-2757",
        "country": "United States",
        "longitude": null,
        "latitude": null,
        "phone": "9706318038",
        "website_url": "http://www.horseanddragonbrewing.com",
        "state": "Colorado",
        "street": "124 Racquette Dr"
        },
        {
        "id": "3b174e82-0a69-43c6-9b47-94cd039c59c3",
        "name": "Intersect Brewing",
        "brewery_type": "micro",
        "address_1": "2160 W Drake Rd Unit A1",
        "address_2": null,
        "address_3": null,
        "city": "Fort Collins",
        "state_province": "Colorado",
        "postal_code": "80526-1486",
        "country": "United States",
        "longitude": null,
        "latitude": null,
        "phone": "9706822041",
        "website_url": "http://www.intersectbrewing.com",
        "state": "Colorado",
        "street": "2160 W Drake Rd Unit A1"
        },
        {
        "id": "30d25781-6bd5-4401-bf30-fbde7de4c15b",
        "name": "Jessup Farm Barrel House",
        "brewery_type": "micro",
        "address_1": "1921 Jessup Dr",
        "address_2": null,
        "address_3": null,
        "city": "Fort Collins",
        "state_province": "Colorado",
        "postal_code": "80525-2551",
        "country": "United States",
        "longitude": "-105.0380013",
        "latitude": "40.5620458",
        "phone": "9705688345",
        "website_url": "http://jessupfarm.com/barrel-house/",
        "state": "Colorado",
        "street": "1921 Jessup Dr"
        },
        {
        "id": "16a73b0d-7b12-4ba3-b43c-8d8e8e34489a",
        "name": "Maxline Brewing",
        "brewery_type": "micro",
        "address_1": "2724 McClelland Dr Ste 190",
        "address_2": null,
        "address_3": null,
        "city": "Fort Collins",
        "state_province": "Colorado",
        "postal_code": "80525-2575",
        "country": "United States",
        "longitude": "-105.0797489",
        "latitude": "40.55059012",
        "phone": "9702862855",
        "website_url": "http://www.maxlinebrewing.com",
        "state": "Colorado",
        "street": "2724 McClelland Dr Ste 190"
        },
        {
        "id": "8938798a-3cd6-4864-96a9-e6febf1b25be",
        "name": "McClellan's Brewing Company",
        "brewery_type": "brewpub",
        "address_1": "1035 S Taft Hill Rd",
        "address_2": null,
        "address_3": null,
        "city": "Fort Collins",
        "state_province": "Colorado",
        "postal_code": "80521-4222",
        "country": "United States",
        "longitude": "-105.1151806",
        "latitude": "40.5737952",
        "phone": "9705688473",
        "website_url": "http://www.mcclellansbrewingcompany.com",
        "state": "Colorado",
        "street": "1035 S Taft Hill Rd"
        },
        {
        "id": "1b0bf444-c830-4958-922c-5c1b46fe37f5",
        "name": "New Belgium Brewing Co",
        "brewery_type": "regional",
        "address_1": "500 Linden St",
        "address_2": null,
        "address_3": null,
        "city": "Fort Collins",
        "state_province": "Colorado",
        "postal_code": "80524-2457",
        "country": "United States",
        "longitude": "-105.0678422",
        "latitude": "40.59335825",
        "phone": "9702210524",
        "website_url": "http://www.newbelgium.com",
        "state": "Colorado",
        "street": "500 Linden St"
        },
        {
        "id": "63fd2c11-5530-4de9-8fe2-8fbf65e3a49f",
        "name": "Odell Brewing Co",
        "brewery_type": "regional",
        "address_1": "800 E Lincoln Ave",
        "address_2": null,
        "address_3": null,
        "city": "Fort Collins",
        "state_province": "Colorado",
        "postal_code": "80524-2507",
        "country": "United States",
        "longitude": "-105.0633327",
        "latitude": "40.5895239",
        "phone": "9704989070",
        "website_url": "http://www.odellbrewing.com",
        "state": "Colorado",
        "street": "800 E Lincoln Ave"
        },
        {
        "id": "1d26e5a5-2e88-45d7-94ef-0e10c85cecde",
        "name": "Pitchers Sports Restaurant and Brewery",
        "brewery_type": "brewpub",
        "address_1": "1100 W Drake Rd",
        "address_2": null,
        "address_3": null,
        "city": "Fort Collins",
        "state_province": "Colorado",
        "postal_code": "80526-6008",
        "country": "United States",
        "longitude": "-105.0973959",
        "latitude": "40.55306785",
        "phone": "9704935374",
        "website_url": "http://www.pitchersbrewery.com",
        "state": "Colorado",
        "street": "1100 W Drake Rd"
        },
        {
        "id": "0676073b-a116-400c-a65a-7101daefc68b",
        "name": "Prost Brewing Fort Collins",
        "brewery_type": "planning",
        "address_1": null,
        "address_2": null,
        "address_3": null,
        "city": "Fort Collins",
        "state_province": "Colorado",
        "postal_code": "80524-2162",
        "country": "United States",
        "longitude": null,
        "latitude": null,
        "phone": "9704842421",
        "website_url": null,
        "state": "Colorado",
        "street": null
        },
        {
        "id": "b8e7517b-317b-4e4d-9d3d-4f7a35200908",
        "name": "Purpose Brewing and Cellars",
        "brewery_type": "micro",
        "address_1": "4025 S Mason St Unit C",
        "address_2": null,
        "address_3": null,
        "city": "Fort Collins",
        "state_province": "Colorado",
        "postal_code": "80525-5953",
        "country": "United States",
        "longitude": null,
        "latitude": null,
        "phone": "9703774107",
        "website_url": "http://www.purposebrewing.com",
        "state": "Colorado",
        "street": "4025 S Mason St Unit C"
        },
        {
        "id": "5806ef06-a300-4a88-820e-f14e0c290794",
        "name": "Rally King Brewing",
        "brewery_type": "micro",
        "address_1": "1624 S Lemay Ave Unit 4",
        "address_2": null,
        "address_3": null,
        "city": "Fort Collins",
        "state_province": "Colorado",
        "postal_code": "80525-1188",
        "country": "United States",
        "longitude": null,
        "latitude": null,
        "phone": "9705688936",
        "website_url": "http://www.rallykingbrewing.com",
        "state": "Colorado",
        "street": "1624 S Lemay Ave Unit 4"
        },
        {
        "id": "a2479685-7402-413d-8398-357db4a5aed8",
        "name": "Ramskeller",
        "brewery_type": "planning",
        "address_1": null,
        "address_2": null,
        "address_3": null,
        "city": "Fort Collins",
        "state_province": "Colorado",
        "postal_code": "80523-0001",
        "country": "United States",
        "longitude": null,
        "latitude": null,
        "phone": "9704911055",
        "website_url": null,
        "state": "Colorado",
        "street": null
        },
        {
        "id": "78f72432-7c43-4f4b-9eb9-6abadb3e7a07",
        "name": "Red Truck Beer Company Ltd.",
        "brewery_type": "micro",
        "address_1": "1020 E Lincoln Ave",
        "address_2": null,
        "address_3": null,
        "city": "Fort Collins",
        "state_province": "Colorado",
        "postal_code": "80524-2509",
        "country": "United States",
        "longitude": "-105.0584895",
        "latitude": "40.58916845",
        "phone": "6046824733",
        "website_url": null,
        "state": "Colorado",
        "street": "1020 E Lincoln Ave"
        },
        {
        "id": "4e7d4dcd-13cd-4b18-acd3-7a690ba97aa0",
        "name": "Snowbank Brewing",
        "brewery_type": "micro",
        "address_1": "225 N Lemay Ave Ste 1",
        "address_2": null,
        "address_3": null,
        "city": "Fort Collins",
        "state_province": "Colorado",
        "postal_code": "80524-2555",
        "country": "United States",
        "longitude": null,
        "latitude": null,
        "phone": "9709995658",
        "website_url": "http://www.snowbank.beer",
        "state": "Colorado",
        "street": "225 N Lemay Ave Ste 1"
        },
        {
        "id": "dff336da-9bbd-4e06-8ab9-405775650ed5",
        "name": "Soul Squared Brewing Co.",
        "brewery_type": "micro",
        "address_1": "6412 N County Road 15",
        "address_2": null,
        "address_3": null,
        "city": "Fort Collins",
        "state_province": "Colorado",
        "postal_code": "80524",
        "country": "United States",
        "longitude": null,
        "latitude": null,
        "phone": null,
        "website_url": "http://www.soulsquaredbrewing.com",
        "state": "Colorado",
        "street": "6412 N County Road 15"
        },
        {
        "id": "994b7ef7-6d89-4f01-ba5f-858c3bf76bcb",
        "name": "Three Four Beer Company",
        "brewery_type": "brewpub",
        "address_1": "829 S Shields St",
        "address_2": null,
        "address_3": null,
        "city": "Fort Collins",
        "state_province": "Colorado",
        "postal_code": "80521-3599",
        "country": "United States",
        "longitude": "-105.0959634",
        "latitude": "40.5726176",
        "phone": "9706821560",
        "website_url": "http://www.threefourbeerco.com",
        "state": "Colorado",
        "street": "829 S Shields St"
        },
        {
        "id": "a602e9ea-f0b3-4a40-8aa8-02e0aace191c",
        "name": "Zwei Brewing Co",
        "brewery_type": "micro",
        "address_1": "4612 S Mason St Ste 120",
        "address_2": null,
        "address_3": null,
        "city": "Fort Collins",
        "state_province": "Colorado",
        "postal_code": "80525-3794",
        "country": "United States",
        "longitude": null,
        "latitude": null,
        "phone": "9702232482",
        "website_url": "http://www.zweibruderbrewing.com",
        "state": "Colorado",
        "street": "4612 S Mason St Ste 120"
    },
    {
        "id": "26567ffb-52fb-40b2-a31f-08f4ea3699b9",
        "name": "Atrevida Beer Company",
        "brewery_type": "micro",
        "address_1": "204 Mount View Ln Unit 3",
        "address_2": null,
        "address_3": null,
        "city": "Colorado Springs",
        "state_province": "Colorado",
        "postal_code": "80908",
        "country": "United States",
        "longitude": null,
        "latitude": null,
        "phone": "7192664200",
        "website_url": "http://www.atrevidabeerco.com",
        "state": "Colorado",
        "street": "204 Mount View Ln Unit 3"
        },
        {
        "id": "c8160b2b-3e43-4db3-bbd8-32f07a0a0060",
        "name": "Black Forest Brewing Company",
        "brewery_type": "brewpub",
        "address_1": "11590 Black Forest Rd Ste 50",
        "address_2": null,
        "address_3": null,
        "city": "Colorado Springs",
        "state_province": "Colorado",
        "postal_code": "80908-6000",
        "country": "United States",
        "longitude": null,
        "latitude": null,
        "phone": "7193962011",
        "website_url": "http://www.blackforestbrewco.com",
        "state": "Colorado",
        "street": "11590 Black Forest Rd Ste 50"
        },
        {
        "id": "b1730024-0cb6-4c63-9f4e-8b3d97b85378",
        "name": "Brass Brewing Company",
        "brewery_type": "micro",
        "address_1": "318 E Colorado Ave",
        "address_2": null,
        "address_3": null,
        "city": "Colorado Springs",
        "state_province": "Colorado",
        "postal_code": "80903-1949",
        "country": "United States",
        "longitude": "-104.8189706",
        "latitude": "38.8326073",
        "phone": null,
        "website_url": null,
        "state": "Colorado",
        "street": "318 E Colorado Ave"
        },
        {
        "id": "c6284312-d384-4e8f-bd67-b4869c58dc38",
        "name": "Bristol Brewing Co",
        "brewery_type": "micro",
        "address_1": "1604 S Cascade Ave",
        "address_2": null,
        "address_3": null,
        "city": "Colorado Springs",
        "state_province": "Colorado",
        "postal_code": "80905-2237",
        "country": "United States",
        "longitude": "-104.827401",
        "latitude": "38.8108617",
        "phone": "7196332555",
        "website_url": "http://www.bristolbrewing.com",
        "state": "Colorado",
        "street": "1604 S Cascade Ave"
        },
        {
        "id": "e3c0946f-f098-4820-baf7-65cba1c2abca",
        "name": "Cerberus Brewing Company",
        "brewery_type": "brewpub",
        "address_1": "702 W Colorado Ave",
        "address_2": null,
        "address_3": null,
        "city": "Colorado Springs",
        "state_province": "Colorado",
        "postal_code": "80905-1539",
        "country": "United States",
        "longitude": "-104.8374071",
        "latitude": "38.8330574",
        "phone": "7196362337",
        "website_url": "http://www.cerberusbrewingco.com",
        "state": "Colorado",
        "street": "702 W Colorado Ave"
        },
        {
        "id": "701f40c6-bf18-4462-bac2-003ed612b484",
        "name": "Cogstone Brewing Co",
        "brewery_type": "brewpub",
        "address_1": "3858 Village Seven Rd",
        "address_2": null,
        "address_3": null,
        "city": "Colorado Springs",
        "state_province": "Colorado",
        "postal_code": "80917-2801",
        "country": "United States",
        "longitude": "-104.75566",
        "latitude": "38.87959595",
        "phone": "7194186595",
        "website_url": "http://www.cogstonebrewing.com",
        "state": "Colorado",
        "street": "3858 Village Seven Rd"
        },
        {
        "id": "ced7171c-5a4d-451b-9f7a-a8d9dc5a8ebc",
        "name": "Colorado Mountain Brewery",
        "brewery_type": "micro",
        "address_1": "1110 Interquest Pkwy",
        "address_2": null,
        "address_3": null,
        "city": "Colorado Springs",
        "state_province": "Colorado",
        "postal_code": "80921-4182",
        "country": "United States",
        "longitude": "-104.8083989",
        "latitude": "38.99103716",
        "phone": "7192717951",
        "website_url": "http://www.cmbrew.com",
        "state": "Colorado",
        "street": "1110 Interquest Pkwy"
        },
        {
        "id": "092060be-42d8-4b37-8d91-d364b37109ea",
        "name": "Colorado Mountain Brewery At the Roundhouse",
        "brewery_type": "brewpub",
        "address_1": "600 S 21st St Unit 180",
        "address_2": null,
        "address_3": null,
        "city": "Colorado Springs",
        "state_province": "Colorado",
        "postal_code": "80904-3714",
        "country": "United States",
        "longitude": null,
        "latitude": null,
        "phone": "7194668240",
        "website_url": "http://www.cmbrew.com",
        "state": "Colorado",
        "street": "600 S 21st St Unit 180"
        },
        {
        "id": "dc1dbe18-f446-43d9-8cdf-cb542bc087cf",
        "name": "Dueces Wild Brewery",
        "brewery_type": "micro",
        "address_1": "660 Peterson Rd",
        "address_2": null,
        "address_3": null,
        "city": "Colorado Springs",
        "state_province": "Colorado",
        "postal_code": "80915-4002",
        "country": "United States",
        "longitude": "-104.7034318",
        "latitude": "38.8877651",
        "phone": "6079729260",
        "website_url": "http://www.dwbbrewery.com",
        "state": "Colorado",
        "street": "660 Peterson Rd"
        },
        {
        "id": "c9b5c1c8-4248-4e77-bc0a-b83eaca79d6d",
        "name": "FH Beerworks",
        "brewery_type": "micro",
        "address_1": "521 S Tejon St",
        "address_2": null,
        "address_3": null,
        "city": "Colorado Springs",
        "state_province": "Colorado",
        "postal_code": "80903-3928",
        "country": "United States",
        "longitude": "-104.8237318",
        "latitude": "38.8260086",
        "phone": "7196406814",
        "website_url": null,
        "state": "Colorado",
        "street": "521 S Tejon St"
        },
        {
        "id": "d919af32-ba3f-4594-844a-dadcdd0a1cf5",
        "name": "FH Beerworks East",
        "brewery_type": "planning",
        "address_1": null,
        "address_2": null,
        "address_3": null,
        "city": "Colorado Springs",
        "state_province": "Colorado",
        "postal_code": "80915",
        "country": "United States",
        "longitude": null,
        "latitude": null,
        "phone": "7196406814",
        "website_url": null,
        "state": "Colorado",
        "street": null
        },
        {
        "id": "152e976b-f10d-4fad-9651-13b6bfd9b9cb",
        "name": "Fossil Craft Beer Co",
        "brewery_type": "micro",
        "address_1": "2845 Ore Mill Rd Ste 1",
        "address_2": null,
        "address_3": null,
        "city": "Colorado Springs",
        "state_province": "Colorado",
        "postal_code": "80904-3161",
        "country": "United States",
        "longitude": null,
        "latitude": null,
        "phone": "7193758298",
        "website_url": "http://www.fossilcraftbeer.com",
        "state": "Colorado",
        "street": "2845 Ore Mill Rd Ste 1"
        },
        {
        "id": "277c5afe-ab6b-41d9-9200-fafcbf1729e0",
        "name": "Goat Patch Brewing Co.",
        "brewery_type": "micro",
        "address_1": "2727 N Cascade Ave Ste 123",
        "address_2": null,
        "address_3": null,
        "city": "Colorado Springs",
        "state_province": "Colorado",
        "postal_code": "80907-6288",
        "country": "United States",
        "longitude": null,
        "latitude": null,
        "phone": "7194714628",
        "website_url": "http://www.goatpatchbrewing.com",
        "state": "Colorado",
        "street": "2727 N Cascade Ave Ste 123"
        },
        {
        "id": "ae816087-1f84-4ea5-aa7f-630e6bacb87d",
        "name": "Gold Camp Brewing Co",
        "brewery_type": "micro",
        "address_1": "1007 S Tejon St",
        "address_2": null,
        "address_3": null,
        "city": "Colorado Springs",
        "state_province": "Colorado",
        "postal_code": "80903-4238",
        "country": "United States",
        "longitude": "-104.823552",
        "latitude": "38.8195724",
        "phone": "7196950344",
        "website_url": null,
        "state": "Colorado",
        "street": "1007 S Tejon St"
        },
        {
        "id": "795d96bb-633e-4d4d-8959-1ba609f409f2",
        "name": "Iron Bird Brewing Co.",
        "brewery_type": "brewpub",
        "address_1": "402 S Nevada Ave",
        "address_2": null,
        "address_3": null,
        "city": "Colorado Springs",
        "state_province": "Colorado",
        "postal_code": "80903-2110",
        "country": "United States",
        "longitude": "-104.8223799",
        "latitude": "38.8280292",
        "phone": "7194247002",
        "website_url": "http://www.ironbirdbrewing.com",
        "state": "Colorado",
        "street": "402 S Nevada Ave"
        },
        {
        "id": "cab5fb39-d342-46c6-a2c5-961381be305e",
        "name": "Local Relic",
        "brewery_type": "brewpub",
        "address_1": "320 S Weber St",
        "address_2": null,
        "address_3": null,
        "city": "Colorado Springs",
        "state_province": "Colorado",
        "postal_code": "80903-2125",
        "country": "United States",
        "longitude": "-104.8203866",
        "latitude": "38.82871975",
        "phone": "7192700077",
        "website_url": "http://www.localrelic.com",
        "state": "Colorado",
        "street": "320 S Weber St"
        },
        {
        "id": "5c96e81b-09a3-467b-9257-cd6faacc6aae",
        "name": "Lost Friend Brewing Company",
        "brewery_type": "micro",
        "address_1": "2458 Montebello Square Dr",
        "address_2": null,
        "address_3": null,
        "city": "Colorado Springs",
        "state_province": "Colorado",
        "postal_code": "80918-1974",
        "country": "United States",
        "longitude": "-104.7823626",
        "latitude": "38.9082661",
        "phone": null,
        "website_url": "http://www.lostfriendbrewing.com",
        "state": "Colorado",
        "street": "2458 Montebello Square Dr"
        },
        {
        "id": "624ccbcf-ed20-42c3-8d17-2253046f82ca",
        "name": "Nano 108 Brewing Co",
        "brewery_type": "micro",
        "address_1": "2402 Waynoka Rd",
        "address_2": null,
        "address_3": null,
        "city": "Colorado Springs",
        "state_province": "Colorado",
        "postal_code": "80915-1612",
        "country": "United States",
        "longitude": null,
        "latitude": null,
        "phone": "7195962337",
        "website_url": "http://www.nano108brewing.com",
        "state": "Colorado",
        "street": "2402 Waynoka Rd"
        },
        {
        "id": "02552dfe-2893-4ef1-82d6-b4713015c61f",
        "name": "Peaks N Pines Brewing Company",
        "brewery_type": "micro",
        "address_1": "4005 Tutt Blvd",
        "address_2": null,
        "address_3": null,
        "city": "Colorado Springs",
        "state_province": "Colorado",
        "postal_code": "80922-2508",
        "country": "United States",
        "longitude": "-104.7146045",
        "latitude": "38.88965993",
        "phone": "7193586758",
        "website_url": "http://www.peaksnpinesbrewery.com",
        "state": "Colorado",
        "street": "4005 Tutt Blvd"
        },
        {
        "id": "2b3ee6dd-fca7-4375-9d38-32fedfd00ada",
        "name": "Phantom Canyon Brewing Co",
        "brewery_type": "brewpub",
        "address_1": "2 E Pikes Peak Ave",
        "address_2": null,
        "address_3": null,
        "city": "Colorado Springs",
        "state_province": "Colorado",
        "postal_code": "80903-1504",
        "country": "United States",
        "longitude": "-104.8249314",
        "latitude": "38.83423935",
        "phone": "7196352800",
        "website_url": "http://www.phantomcanyon.com",
        "state": "Colorado",
        "street": "2 E Pikes Peak Ave"
        },
        {
        "id": "cec54270-d377-44b4-8ca8-d847c204b637",
        "name": "Red Leg Brewing Company",
        "brewery_type": "micro",
        "address_1": "4630 Forge Rd Ste B",
        "address_2": null,
        "address_3": null,
        "city": "Colorado Springs",
        "state_province": "Colorado",
        "postal_code": "80907-3556",
        "country": "United States",
        "longitude": null,
        "latitude": null,
        "phone": "7195983776",
        "website_url": "http://www.redlegbrewingco.com",
        "state": "Colorado",
        "street": "4630 Forge Rd Ste B"
        },
        {
        "id": "a68d7446-e2e5-4e6c-a4f9-6dc0fd8e3205",
        "name": "Rock Bottom Brewery - Colorado Springs",
        "brewery_type": "brewpub",
        "address_1": "3316 Cinema Point Dr",
        "address_2": null,
        "address_3": null,
        "city": "Colorado Springs",
        "state_province": "Colorado",
        "postal_code": "80922",
        "country": "United States",
        "longitude": "-104.718194",
        "latitude": "38.8811909",
        "phone": "7195503586",
        "website_url": "http://www.rockbottom.com",
        "state": "Colorado",
        "street": "3316 Cinema Point Dr"
        },
        {
        "id": "f8ccbe29-ac88-4570-841f-acf582e394e6",
        "name": "Rocky Mountain Brewery",
        "brewery_type": "micro",
        "address_1": "625 Paonia St",
        "address_2": null,
        "address_3": null,
        "city": "Colorado Springs",
        "state_province": "Colorado",
        "postal_code": "80915-3727",
        "country": "United States",
        "longitude": null,
        "latitude": null,
        "phone": "7195281651",
        "website_url": "http://www.rockymountainbrews.com",
        "state": "Colorado",
        "street": "625 Paonia St"
        },
        {
        "id": "9692085e-0a88-418f-bae2-8ac272043c22",
        "name": "Smiling Toad Brewery",
        "brewery_type": "micro",
        "address_1": "1757 S 8th St Ste 100",
        "address_2": null,
        "address_3": null,
        "city": "Colorado Springs",
        "state_province": "Colorado",
        "postal_code": "80905-1926",
        "country": "United States",
        "longitude": null,
        "latitude": null,
        "phone": "7194182936",
        "website_url": "http://www.smilingtoadbrewery.com",
        "state": "Colorado",
        "street": "1757 S 8th St Ste 100"
        },
        {
        "id": "5be36509-b0db-42b2-89ac-09b98b7062f3",
        "name": "Storybook Brewing",
        "brewery_type": "micro",
        "address_1": "3121 N El Paso St Ste A",
        "address_2": null,
        "address_3": null,
        "city": "Colorado Springs",
        "state_province": "Colorado",
        "postal_code": "80907-5469",
        "country": "United States",
        "longitude": null,
        "latitude": null,
        "phone": "7196336266",
        "website_url": "http://www.storybookbrewing.com",
        "state": "Colorado",
        "street": "3121 N El Paso St Ste A"
        },
        {
        "id": "6230d54c-2de5-41c3-b5b3-60dc70d6b2ac",
        "name": "Trinity Brewing",
        "brewery_type": "brewpub",
        "address_1": "1466 Garden of The Gods Rd Ste 184",
        "address_2": null,
        "address_3": null,
        "city": "Colorado Springs",
        "state_province": "Colorado",
        "postal_code": "80907-9464",
        "country": "United States",
        "longitude": null,
        "latitude": null,
        "phone": "7196340029",
        "website_url": "http://www.trinitybrew.com",
        "state": "Colorado",
        "street": "1466 Garden of The Gods Rd Ste 184"
        },
        {
        "id": "fc51057f-e541-4931-92eb-e79d1bc93f46",
        "name": "Whistle Pig Brewing Company",
        "brewery_type": "micro",
        "address_1": "1840 Dominion Way",
        "address_2": null,
        "address_3": null,
        "city": "Colorado Springs",
        "state_province": "Colorado",
        "postal_code": "80918-1467",
        "country": "United States",
        "longitude": "-104.7931723",
        "latitude": "38.92372675",
        "phone": "7195981339",
        "website_url": "http://www.whistlepigbrewing.com",
        "state": "Colorado",
        "street": "1840 Dominion Way"
    }
]